,City,Country,Lat,Lng,Max Temp,Humidity,Cloudiness,Wind Speed,Current Description
0,Moranbah,AU,-22.0016,148.0466,63.7,87,0,7.67,clear sky
1,Padang,ID,-0.9492,100.3543,75.25,87,100,2.64,moderate rain
2,Viedma,AR,-40.8135,-62.9967,55.67,25,0,14.56,clear sky
3,Hasaki,JP,35.7333,140.8333,59.4,93,100,19.64,moderate rain
4,Albany,US,42.6001,-73.9662,67.64,79,98,7.0,light rain
5,Samarai,PG,-10.6167,150.6667,79.41,81,100,2.51,overcast clouds
6,San Quintin,MX,30.4833,-115.95,70.38,75,86,11.3,overcast clouds
7,Davila,PH,18.4726,120.5763,80.02,84,42,18.7,scattered clouds
8,Rikitea,PF,-23.1203,-134.9692,70.3,71,15,17.43,few clouds
9,Elat,IL,29.5581,34.9482,79.93,44,0,11.59,clear sky
10,San Patricio,US,28.017,-97.5169,91.35,50,0,5.1,clear sky
11,Busselton,AU,-33.65,115.3333,52.79,66,97,5.5,overcast clouds
12,Mount Gambier,AU,-37.8333,140.7667,49.91,93,75,10.36,broken clouds
13,Norman Wells,CA,65.282,-126.8329,30.24,86,100,8.05,overcast clouds
14,Dikson,RU,73.5069,80.5464,33.06,93,100,29.75,overcast clouds
15,Lebu,CL,-37.6167,-73.65,51.24,57,39,20.07,scattered clouds
16,Ahipara,NZ,-35.1667,173.1667,53.46,93,96,7.74,overcast clouds
17,Sagua La Grande,CU,22.8067,-80.0756,90.59,53,52,5.7,moderate rain
18,Burns Lake,CA,54.2331,-125.7533,50.29,73,100,3.89,overcast clouds
19,San Ramon,US,37.7799,-121.978,63.55,81,75,4.61,broken clouds
20,Ushuaia,AR,-54.8,-68.3,46.02,70,75,21.85,broken clouds
21,Port Hardy,CA,50.6996,-127.4199,54.82,80,51,0.4,broken clouds
22,Uvira,CD,-3.4067,29.1458,79.09,53,48,4.36,scattered clouds
23,Mataura,NZ,-46.1927,168.8643,34.59,99,20,3.15,few clouds
24,Port Lincoln,AU,-34.7333,135.8667,54.01,74,8,20.58,clear sky
25,Bluff,NZ,-46.6,168.3333,41.07,87,14,9.78,few clouds
26,General Roca,AR,-39.0333,-67.5833,60.03,16,4,6.8,clear sky
27,Coihaique,CL,-45.5752,-72.0662,44.55,57,100,9.22,overcast clouds
28,Hilo,US,19.7297,-155.09,82.27,84,0,4.0,clear sky
29,Sfantu Gheorghe,RO,45.8667,25.7833,50.94,83,95,3.42,overcast clouds
30,Lamu,KE,-2.2717,40.902,75.42,81,100,13.98,overcast clouds
31,Avarua,CK,-21.2078,-159.775,75.25,88,75,12.66,broken clouds
32,Carnarvon,AU,-24.8667,113.6333,65.46,60,0,20.45,clear sky
33,Ribeira Grande,PT,38.5167,-28.7,74.77,78,40,11.5,scattered clouds
34,Praia Da Vitoria,PT,38.7333,-27.0667,75.76,81,59,12.84,broken clouds
35,Mar Del Plata,AR,-38.0023,-57.5575,55.94,51,0,17.27,clear sky
36,Hithadhoo,MV,-0.6,73.0833,81.59,70,85,12.59,overcast clouds
37,Pevek,RU,69.7008,170.3133,19.4,80,99,6.78,overcast clouds
38,Dalvik,IS,65.9702,-18.5286,39.13,97,97,7.58,overcast clouds
39,Suez,EG,29.9737,32.5263,72.9,62,0,13.6,clear sky
40,Codrington,AU,-38.2667,141.9667,49.75,90,48,14.0,scattered clouds
41,Coquimbo,CL,-29.9533,-71.3436,62.33,67,75,9.22,broken clouds
42,Butaritari,KI,3.0707,172.7902,82.0,71,53,17.94,broken clouds
43,Sobolevo,RU,54.4299,31.8996,42.22,75,14,0.92,few clouds
44,Jamestown,US,42.097,-79.2353,51.39,94,100,6.91,overcast clouds
45,Arcachon,FR,44.5875,-1.0519,66.25,82,75,9.22,broken clouds
46,Malkara,TR,40.89,26.9011,57.97,61,77,11.95,broken clouds
47,Westport,US,41.1415,-73.3579,71.46,68,40,11.01,scattered clouds
48,Bedford,GB,52.1346,-0.4663,58.8,74,40,0.0,scattered clouds
49,Mahebourg,MU,-20.4081,57.7,71.89,73,75,12.66,broken clouds
50,Shache,CN,38.4167,77.2406,58.64,18,2,6.24,clear sky
51,Kyzyl-Suu,KG,42.3414,78.0056,47.98,32,4,7.16,clear sky
52,Sukhumi,GE,43.0033,41.0153,59.18,64,100,4.29,overcast clouds
53,Voznesenye,RU,61.0106,35.4781,41.29,80,47,8.48,scattered clouds
54,Wuda,CN,39.4994,106.7117,51.22,43,77,1.25,broken clouds
55,Genthin,DE,52.4,12.1667,57.06,68,100,2.91,overcast clouds
56,Great Falls,US,47.5002,-111.3008,56.41,53,0,9.22,clear sky
57,Port Alfred,ZA,-33.5906,26.891,67.17,95,64,8.01,broken clouds
58,Porbandar,IN,21.6422,69.6093,84.54,49,8,12.64,clear sky
59,Punta Arenas,CL,-53.15,-70.9167,48.31,49,75,16.11,broken clouds
60,Ponta Do Sol,PT,32.6667,-17.1,74.71,74,16,2.04,few clouds
61,Flinders,AU,-34.5833,150.8552,64.18,86,100,7.0,moderate rain
62,Naryan-Mar,RU,67.6713,53.087,36.59,90,24,8.39,few clouds
63,Vaini,TO,-21.2,-175.2,69.96,94,75,0.0,light rain
64,Victoria,HK,22.2855,114.1577,80.38,75,52,5.99,broken clouds
65,Georgetown,MY,5.4112,100.3354,79.9,91,20,3.44,light rain
66,Kodiak,US,57.79,-152.4072,35.11,48,0,9.22,clear sky
67,Klaksvik,FO,62.2266,-6.589,45.52,82,98,9.91,overcast clouds
68,Qaanaaq,GL,77.484,-69.3632,16.16,66,100,10.13,overcast clouds
69,Joniskis,LT,56.2403,23.6153,50.92,78,64,7.54,broken clouds
70,Chokurdakh,RU,70.6333,147.9167,8.2,96,94,4.7,overcast clouds
71,Fare,PF,-16.7,-151.0167,77.86,77,24,11.92,few clouds
72,Kapaa,US,22.0752,-159.319,75.18,92,100,8.05,light rain
73,Wajima,JP,37.4,136.9,63.23,76,35,5.06,scattered clouds
74,Saint-Paul,RE,-21.0096,55.2707,71.71,76,26,1.9,scattered clouds
75,Atuona,PF,-9.8,-139.0333,77.22,77,64,22.48,broken clouds
76,Constitucion,CL,-35.3333,-72.4167,59.02,43,10,18.39,clear sky
77,Tran,BG,42.8353,22.6517,54.59,78,94,3.38,overcast clouds
78,East London,ZA,-33.0153,27.9116,67.14,94,75,24.16,broken clouds
79,Longyearbyen,SJ,78.2186,15.6401,28.24,69,20,0.0,few clouds
80,Touros,BR,-5.1989,-35.4608,84.36,60,14,18.48,few clouds
81,Cherskiy,RU,68.75,161.3,6.62,91,100,5.32,overcast clouds
82,Talnakh,RU,69.4865,88.3972,27.21,96,98,6.26,overcast clouds
83,New Norfolk,AU,-42.7826,147.0587,54.9,71,100,8.01,overcast clouds
84,Oga,IT,46.4631,10.347,52.48,78,100,2.26,overcast clouds
85,Salalah,OM,17.0151,54.0924,80.69,78,75,3.44,broken clouds
86,Saskylakh,RU,71.9167,114.0833,17.94,97,97,5.12,overcast clouds
87,Hobart,AU,-42.8794,147.3294,58.86,85,40,17.27,light intensity shower rain
88,Geraldton,AU,-28.7667,114.6,48.61,81,0,10.36,clear sky
89,Acobamba,PE,-11.3525,-75.6594,68.31,33,18,6.93,few clouds
90,Cidreira,BR,-30.1811,-50.2056,70.02,73,3,8.1,clear sky
91,Yellowknife,CA,62.456,-114.3525,36.12,75,75,31.07,broken clouds
92,Cape Town,ZA,-33.9258,18.4232,64.27,70,75,11.5,broken clouds
93,Port Elizabeth,ZA,-33.918,25.5701,69.1,97,75,19.57,broken clouds
94,Vila Velha,BR,-20.3297,-40.2925,84.15,61,20,16.11,few clouds
95,Kruisfontein,ZA,-34.0033,24.7314,66.88,93,100,14.61,overcast clouds
96,Nyazepetrovsk,RU,56.0531,59.6028,45.39,66,99,5.19,overcast clouds
97,Bathsheba,BB,13.2167,-59.5167,88.41,70,40,16.11,scattered clouds
98,Luderitz,NA,-26.6481,15.1594,61.81,80,1,14.12,clear sky
99,Saint-Philippe,RE,-21.3585,55.7679,71.19,74,13,10.36,few clouds
100,Menongue,AO,-14.6585,17.691,81.1,21,90,1.32,overcast clouds
101,Srednekolymsk,RU,67.45,153.6833,12.79,93,100,5.03,overcast clouds
102,Olafsvik,IS,64.8945,-23.7142,40.91,77,79,17.96,broken clouds
103,Takoradi,GH,4.8845,-1.7554,79.66,81,56,11.9,light rain
104,Komsomolskiy,UZ,40.4272,71.7189,57.92,44,37,6.91,scattered clouds
105,Cozumel,MX,20.5083,-86.9458,89.67,70,75,5.75,broken clouds
106,Mokhsogollokh,RU,61.4681,128.9203,24.21,97,96,3.47,overcast clouds
107,Yura,PE,-16.2522,-71.6797,64.92,13,0,9.22,clear sky
108,Naze,JP,28.3667,129.4833,74.32,86,57,25.03,broken clouds
109,Hermanus,ZA,-34.4187,19.2345,60.8,83,71,4.94,broken clouds
110,Weinan,CN,34.5036,109.5089,58.68,75,100,3.94,overcast clouds
111,Adrar,MR,20.5022,-10.0711,91.6,19,100,10.09,overcast clouds
112,Aurangabad,IN,19.8833,75.3333,73.18,85,58,9.46,broken clouds
113,Aksu,CN,41.1231,80.2644,55.89,29,0,1.72,clear sky
114,Saint George,US,37.1041,-113.5841,73.8,24,0,1.01,clear sky
115,Bloomfield,US,40.8068,-74.1854,69.91,85,100,13.8,light rain
116,Luganville,VU,-15.5333,167.1667,76.03,84,98,5.5,overcast clouds
117,Acapulco,MX,16.8634,-99.8901,85.82,66,100,5.75,light rain
118,Providencia,MX,28.7167,-111.5833,88.41,48,94,5.1,overcast clouds
119,Dobrinka,RU,52.1653,40.4731,42.82,77,87,6.8,overcast clouds
120,Bethel,US,41.3712,-73.414,70.92,71,100,9.22,overcast clouds
121,Ilulissat,GL,69.2167,-51.1,24.82,93,75,3.44,broken clouds
122,La Ronge,CA,55.1001,-105.2842,37.62,48,20,17.27,few clouds
123,Bredasdorp,ZA,-34.5322,20.0403,60.13,76,97,6.98,overcast clouds
124,Lazaro Cardenas,MX,17.9583,-102.2,83.91,75,99,5.03,light rain
125,Isangel,VU,-19.55,169.2667,72.19,73,96,13.02,overcast clouds
126,Taunsa,PK,30.7048,70.6505,80.22,22,0,3.42,clear sky
127,Saint-Augustin,CA,51.226,-58.6502,48.15,71,88,7.14,overcast clouds
128,Chuy,UY,-33.6971,-53.4616,60.06,69,96,20.11,light rain
129,Shiraz,IR,29.6036,52.5388,65.64,24,0,0.0,clear sky
130,Pisco,PE,-13.7,-76.2167,65.01,72,100,10.36,overcast clouds
131,Hamilton,US,39.1834,-84.5333,63.21,45,0,13.8,clear sky
132,Nome,US,64.5011,-165.4064,19.47,79,0,0.0,clear sky
133,Atambua,ID,-9.1061,124.8925,75.78,82,62,2.39,broken clouds
134,Chicama,PE,-7.8447,-79.1469,61.34,59,43,10.13,scattered clouds
135,Torbay,CA,47.6666,-52.7314,61.88,66,20,6.91,few clouds
136,Kilindoni,TZ,-7.9139,39.6668,76.44,71,11,14.52,few clouds
137,Kefar Shemaryahu,IL,32.1856,34.8219,76.98,59,11,7.07,few clouds
138,Kavaratti,IN,10.5669,72.642,81.84,73,19,4.72,few clouds
139,Arraial Do Cabo,BR,-22.9661,-42.0278,82.26,61,0,24.16,clear sky
140,Coolum Beach,AU,-26.5333,153.1,67.1,96,74,5.95,broken clouds
141,Dalianwan,CN,39.0286,121.695,55.44,82,0,0.0,clear sky
142,Tucuman,AR,-26.8241,-65.2226,86.0,21,0,12.66,clear sky
143,Faanui,PF,-16.4833,-151.75,77.94,78,19,13.56,light rain
144,Upernavik,GL,72.7868,-56.1549,15.4,70,68,4.36,broken clouds
145,Chengam,IN,12.3,78.8,74.64,92,37,3.13,scattered clouds
146,Mopipi,BW,-21.1833,24.8833,84.52,13,6,7.16,clear sky
147,Provideniya,RU,64.3833,-173.3,23.23,68,4,4.34,clear sky
148,Mbalmayo,CM,3.5167,11.5,70.74,95,100,2.17,moderate rain
149,Kavieng,PG,-2.5744,150.7967,80.96,76,24,10.2,few clouds
150,Verkhoyansk,RU,67.5447,133.385,-2.51,99,84,1.16,broken clouds
151,Tessalit,ML,20.1986,1.0114,96.96,7,25,5.23,scattered clouds
152,Tasiilaq,GL,65.6145,-37.6368,33.96,79,100,8.34,overcast clouds
153,Santo Tomas,PH,14.1079,121.1414,81.55,92,100,2.26,overcast clouds
154,Kamaishi,JP,39.2667,141.8833,54.16,83,68,6.06,broken clouds
155,Sao Lourenco Do Sul,BR,-31.3653,-51.9783,74.75,48,0,5.23,clear sky
156,Bentiu,SS,9.2333,29.8333,81.61,67,83,5.12,broken clouds
157,Batticaloa,LK,7.7102,81.6924,79.68,79,94,2.3,overcast clouds
158,Elsdorf,DE,50.9374,6.5683,58.71,88,75,1.14,light rain
159,Barrow,US,71.2906,-156.7887,26.62,68,75,9.22,broken clouds
160,Kirakira,SB,-10.4544,161.9205,79.18,79,61,6.17,broken clouds
161,Omagh,GB,54.6,-7.3,53.35,86,92,6.67,overcast clouds
162,Walvis Bay,NA,-22.9575,14.5053,61.75,77,38,9.22,scattered clouds
163,Udachnyy,RU,66.4167,112.4,21.52,96,100,7.07,overcast clouds
164,Qena,EG,26.1615,32.7183,83.1,23,0,12.73,clear sky
165,Hokitika,NZ,-42.7167,170.9667,44.8,68,0,6.62,clear sky
166,Husavik,IS,66.0449,-17.3389,36.28,96,100,6.08,overcast clouds
167,Teya,RU,60.3778,92.6267,30.47,92,94,4.43,overcast clouds
168,Parakou,BJ,9.3372,2.6303,76.64,85,98,2.06,light rain
169,Fez,MA,34.0372,-4.9998,77.25,46,20,5.75,few clouds
170,Leningradskiy,RU,69.3833,178.4167,13.73,74,72,5.79,broken clouds
171,Winnemucca,US,40.973,-117.7357,60.85,29,0,3.44,clear sky
172,Khatanga,RU,71.9667,102.5,-2.47,100,52,5.08,broken clouds
173,Kudahuvadhoo,MV,2.6708,72.8944,77.65,89,100,20.78,overcast clouds
174,Annau,TM,37.8876,58.516,69.3,40,75,2.3,broken clouds
175,Ketchikan,US,55.3422,-131.6461,54.07,94,100,14.97,light rain
176,Kurilsk,RU,45.2333,147.8833,49.78,84,97,7.96,overcast clouds
177,Tuktoyaktuk,CA,69.4541,-133.0374,23.0,93,75,2.3,broken clouds
178,Puerto Ayora,EC,-0.7393,-90.3518,75.16,95,94,1.99,overcast clouds
179,Semey,KZ,50.4111,80.2275,45.91,64,52,9.33,broken clouds
180,Nikolskoye,RU,59.7035,30.7861,42.69,84,97,4.79,overcast clouds
181,Kamakwie,SL,9.5,-12.2333,85.08,76,85,1.68,overcast clouds
182,Jasper,US,37.2001,-94.3502,68.68,25,0,19.57,clear sky
183,Izyum,UA,49.2088,37.2485,48.25,70,100,5.19,overcast clouds
184,Narrabri,AU,-30.3167,149.7833,69.53,65,100,10.0,overcast clouds
185,Show Low,US,34.2542,-110.0298,69.08,26,0,4.61,clear sky
186,Gizo,SB,-8.103,156.8419,81.09,78,96,6.24,light rain
187,Filadelfia,US,39.9523,-75.1638,71.15,86,100,11.5,overcast clouds
188,Laguna,US,38.421,-121.4238,76.96,75,0,4.61,clear sky
189,Hofn,IS,64.2539,-15.2082,42.82,70,20,5.75,few clouds
190,Labuhan,ID,-6.8844,112.2051,78.57,82,100,9.17,light rain
191,Erenhot,CN,43.6475,111.9767,50.74,27,100,9.33,overcast clouds
192,Bonanza,NI,14.0289,-84.591,88.36,53,100,3.78,overcast clouds
193,Axim,GH,4.8699,-2.2405,79.38,81,68,9.98,broken clouds
194,Asau,RO,46.4333,26.4,51.28,99,100,2.33,overcast clouds
195,Maniitsoq,GL,65.4167,-52.9,30.24,60,1,3.13,clear sky
196,Ondjiva,AO,-17.0667,15.7333,86.09,17,88,4.0,overcast clouds
197,Sabang,ID,5.8933,95.3214,81.28,77,30,20.76,scattered clouds
198,Lichinga,MZ,-13.3128,35.2406,74.43,27,35,1.86,scattered clouds
199,Monrovia,LR,6.3005,-10.7969,83.97,76,98,7.54,overcast clouds
200,Kununurra,AU,-15.7667,128.7333,78.78,73,26,3.44,scattered clouds
201,Malanje,AO,-9.5402,16.341,72.61,66,93,5.91,overcast clouds
202,Chunhuhub,MX,19.55,-88.6833,89.47,53,100,3.69,overcast clouds
203,Labytnangi,RU,66.6572,66.4183,37.65,95,100,5.61,overcast clouds
204,Tres Picos,MX,15.8667,-93.5333,87.17,68,88,6.08,overcast clouds
205,Maceio,BR,-9.6658,-35.7353,83.64,61,75,12.66,broken clouds
206,Kenai,US,60.5544,-151.2583,21.25,100,0,4.61,clear sky
207,Yagodnoye,RU,62.55,149.6667,8.37,95,97,3.24,overcast clouds
208,Narasannapeta,IN,18.4167,84.05,78.67,86,72,4.23,broken clouds
209,Rawson,AR,-43.3002,-65.1023,51.35,29,0,3.04,clear sky
210,Lavrentiya,RU,65.5833,-171.0,23.14,55,13,4.76,few clouds
211,Kloulklubed,PW,7.0419,134.2556,81.1,79,100,16.73,overcast clouds
212,Zhigansk,RU,66.7697,123.3711,24.31,98,100,0.83,light snow
213,Nouadhibou,MR,20.931,-17.0347,76.98,57,98,18.41,overcast clouds
214,Bejucal,CU,22.9286,-82.3886,88.83,62,40,6.91,scattered clouds
215,Odessa,UA,46.4775,30.7326,56.93,50,100,6.64,overcast clouds
216,Severo-Kurilsk,RU,50.6789,156.125,43.27,72,71,11.1,broken clouds
217,Sisimiut,GL,66.9395,-53.6735,32.31,79,83,16.22,broken clouds
218,Buchanan,LR,5.8808,-10.0467,80.98,75,95,7.07,overcast clouds
219,Kisangani,CD,0.5167,25.2,77.52,76,80,0.85,broken clouds
220,Hobyo,SO,5.3505,48.5268,77.97,83,70,20.51,broken clouds
221,Ceres,US,37.5949,-120.9577,65.97,67,0,8.05,clear sky
222,Samana,DO,19.2056,-69.3369,88.02,74,40,6.91,scattered clouds
223,Sitka,US,57.0531,-135.33,57.9,96,100,18.54,moderate rain
224,Berlevag,NO,70.8578,29.0864,39.2,86,69,11.5,broken clouds
225,Los Llanos De Aridane,ES,28.6585,-17.9182,73.13,69,20,16.11,few clouds
226,Kieta,PG,-6.2167,155.6333,77.95,84,100,2.68,overcast clouds
227,Xinxiang,CN,35.3089,113.8672,61.92,42,99,3.02,overcast clouds
228,Xuddur,SO,4.1213,43.8894,77.11,65,52,12.26,broken clouds
229,Sibenik,HR,43.7272,15.9058,64.06,73,100,3.24,overcast clouds
230,Herat,AF,34.5,62.0,64.96,13,0,9.91,clear sky
231,Rocha,UY,-34.4833,-54.3333,54.79,65,100,16.8,overcast clouds
232,Dudinka,RU,69.4058,86.1778,27.63,83,100,9.08,overcast clouds
233,Marsaxlokk,MT,35.8419,14.5431,74.08,79,100,4.65,overcast clouds
234,Palmer,US,42.1584,-72.3287,72.5,78,95,3.0,overcast clouds
235,Tommot,RU,58.9564,126.2925,24.85,96,92,2.44,overcast clouds
236,Altay,CN,47.8667,88.1167,41.5,46,71,4.36,broken clouds
237,Lagoa,PT,39.05,-27.9833,70.86,74,23,7.7,few clouds
238,Roebourne,AU,-20.7833,117.1333,71.37,41,76,8.08,broken clouds
239,Moses Lake,US,47.1301,-119.2781,63.28,41,0,11.5,clear sky
240,Pangody,RU,65.85,74.4859,38.68,80,100,13.94,overcast clouds
241,Rumuruti,KE,0.267,36.5389,69.22,43,99,7.54,overcast clouds
242,Caohe,CN,30.2297,115.4335,59.83,59,0,1.1,clear sky
243,Necochea,AR,-38.5473,-58.7368,55.09,40,5,18.21,clear sky
244,Greenwood,US,34.1668,-82.1165,75.61,71,40,13.8,scattered clouds
245,Palauig,PH,15.435,119.9045,80.94,79,100,3.98,overcast clouds
246,Saint Anthony,US,45.0205,-93.218,43.93,59,100,17.27,overcast clouds
247,Tucurui,BR,-3.7661,-49.6725,93.13,40,37,6.93,scattered clouds
248,Emerald,AU,-23.5333,148.1667,59.34,80,1,10.67,clear sky
249,Molchanovo,RU,57.5817,83.7692,31.89,85,13,2.89,few clouds
250,Wilmington,US,34.2257,-77.9447,80.51,77,75,4.0,broken clouds
251,Saint-Dizier,FR,48.4167,5.0833,56.68,87,100,4.68,overcast clouds
252,Biltine,TD,14.5333,20.9167,93.36,16,55,7.09,broken clouds
253,Usevya,TZ,-7.1,31.2333,78.71,24,9,4.9,clear sky
254,Ayan,RU,56.45,138.1667,40.57,71,27,7.65,scattered clouds
255,Santa Isabel Do Rio Negro,BR,-0.4139,-65.0192,98.4,34,55,2.51,broken clouds
256,Thompson,CA,55.7435,-97.8558,32.16,100,100,14.97,light snow
257,Port Hedland,AU,-20.3167,118.5667,64.45,45,66,5.75,broken clouds
258,Cacoal,BR,-11.4386,-61.4472,90.64,46,98,4.9,overcast clouds
259,San Andres,CO,12.5847,-81.7006,86.02,70,75,9.22,broken clouds
260,Delaware,US,39.0004,-75.4999,72.1,85,100,14.29,overcast clouds
261,Waipawa,NZ,-41.4122,175.5153,43.52,86,86,6.08,overcast clouds
262,Amarillo,US,35.222,-101.8313,62.38,37,0,10.36,clear sky
263,Laem Sing,TH,12.4816,102.0738,80.02,100,100,6.42,overcast clouds
264,Bengkulu,ID,-3.8004,102.2655,74.82,91,100,3.51,moderate rain
265,Surgut,RU,61.25,73.4167,37.58,80,0,4.47,clear sky
266,Novyy Urengoy,RU,66.0833,76.6333,38.44,80,100,10.76,overcast clouds
267,Colmenar Viejo,ES,40.6591,-3.7676,74.17,47,95,2.57,overcast clouds
268,Anadyr,RU,64.75,177.4833,9.1,85,20,6.71,few clouds
269,Serebryansk,KZ,49.6925,83.2892,44.49,52,60,0.69,broken clouds
270,Tandil,AR,-37.3217,-59.1332,58.68,18,58,15.68,broken clouds
271,Pauini,BR,-7.7136,-66.9764,96.91,35,70,3.91,broken clouds
272,Warrington,GB,53.3925,-2.5802,56.86,76,20,8.05,few clouds
273,San Estanislao,CO,10.3983,-75.1511,85.89,74,100,7.34,light rain
274,Pacific Grove,US,36.6177,-121.9166,59.52,95,100,5.99,mist
275,Sainte-Rose,GP,16.3324,-61.6979,88.18,66,75,6.91,broken clouds
276,Amapa,BR,1.0,-52.0,94.84,35,81,9.86,broken clouds
277,Lodeynoye Pole,RU,60.726,33.5531,39.16,90,42,4.45,scattered clouds
278,Fallon,US,39.4735,-118.7774,71.92,25,0,0.0,clear sky
279,Ixtapa,MX,20.7,-105.2,86.23,54,20,4.0,few clouds
280,Quesnel,CA,52.9999,-122.5029,43.3,87,0,5.75,clear sky
281,Hwange,ZW,-18.3693,26.5019,84.11,18,1,2.71,clear sky
282,Qaqortoq,GL,60.7167,-46.0333,31.15,49,33,6.04,scattered clouds
283,Cabo San Lucas,MX,22.8909,-109.9124,89.62,51,0,10.36,clear sky
284,Murray Bridge,AU,-35.1167,139.2667,54.12,70,82,20.09,broken clouds
285,Gouyave,GD,12.1646,-61.7296,86.77,70,20,19.57,light rain
286,Chavakkad,IN,10.5333,76.05,79.39,82,88,2.55,overcast clouds
287,Vestmannaeyjar,IS,63.4427,-20.2734,43.79,75,0,14.97,clear sky
288,Castro,BR,-24.7911,-50.0119,65.62,89,100,8.7,light rain
289,Palu,ID,-0.8917,119.8707,75.72,90,100,2.64,overcast clouds
290,Dicamay,PH,16.7561,122.0037,73.69,98,98,2.68,overcast clouds
291,Veraval,IN,20.9,70.3667,82.94,70,61,2.06,broken clouds
292,Joshimath,IN,30.5667,79.5667,53.85,68,15,6.91,few clouds
293,Cartagena,CO,10.3997,-75.5144,85.62,74,75,12.66,broken clouds
294,Talara,PE,-4.5772,-81.2719,75.96,57,0,20.71,clear sky
295,Tuatapere,NZ,-46.1333,167.6833,37.15,95,14,4.76,few clouds
296,Manaure,CO,11.7751,-72.4445,85.41,70,100,11.74,overcast clouds
297,Moanda,GA,-1.5575,13.2178,86.23,94,78,0.43,moderate rain
298,North Bend,US,43.4065,-124.2243,51.71,100,100,0.0,mist
299,Narsaq,GL,60.9167,-46.05,35.82,61,28,3.04,scattered clouds
300,Plettenberg Bay,ZA,-34.0527,23.3716,64.56,95,91,9.86,light rain
301,Yulara,AU,-25.2406,130.9889,53.8,47,0,8.99,clear sky
302,Inuvik,CA,68.3499,-133.7218,22.06,86,75,5.75,broken clouds
303,Berezovyy,RU,51.6667,135.7,40.06,79,49,4.43,scattered clouds
304,Mangan,IN,27.5167,88.5333,66.15,81,14,5.14,few clouds
305,Gwadar,PK,25.1216,62.3254,80.11,69,0,6.85,clear sky
306,Northam,GB,51.0333,-4.2167,57.61,89,98,5.86,overcast clouds
307,Iqaluit,CA,63.7506,-68.5145,24.53,79,20,3.44,few clouds
308,Smithers,CA,54.7804,-127.1743,43.12,87,75,5.75,broken clouds
309,Takhtamygda,RU,54.1,123.5667,32.25,89,93,1.79,overcast clouds
310,Salamiyah,SY,35.0113,37.0532,69.48,61,2,10.4,clear sky
311,Pringsewu,ID,-5.3582,104.9744,74.93,91,70,5.75,moderate rain
312,Mount Pleasant,US,32.7941,-79.8626,81.99,76,0,5.01,clear sky
313,Bodden Town,KY,19.2833,-81.25,87.8,66,20,8.05,few clouds
314,Souillac,MU,-20.5167,57.5167,71.98,73,75,12.66,light rain
315,Karakol,KG,42.4907,78.3936,46.4,32,3,5.03,clear sky
316,Alofi,NU,-19.0595,-169.9187,67.89,100,96,2.3,overcast clouds
317,Pemangkat,ID,1.1667,108.9667,80.24,80,100,8.19,overcast clouds
318,Huanren,CN,41.2647,125.3667,45.59,89,35,1.32,scattered clouds
319,Atasu,KZ,48.6814,71.6433,52.5,24,72,8.1,broken clouds
320,Thunder Bay,CA,48.4001,-89.3168,44.58,65,75,10.36,broken clouds
321,Buenos Aires,AR,-34.6132,-58.3772,66.99,24,0,13.8,clear sky
322,Lompoc,US,34.6391,-120.4579,66.52,85,40,1.01,scattered clouds
323,Ouadda,CF,8.0777,22.4007,71.78,86,85,4.83,light rain
324,Tema,GH,5.667,-0.0166,82.81,78,20,14.97,light rain
325,Batsfjord,NO,70.6345,29.7185,33.73,81,94,6.04,overcast clouds
326,Beringovskiy,RU,63.05,179.3167,29.59,65,85,5.99,overcast clouds
327,Petropavlovsk-Kamchatskiy,RU,53.0452,158.6483,34.39,75,0,6.71,clear sky
328,Chapais,CA,49.7834,-74.8492,53.38,78,100,13.56,light rain
329,Tiksi,RU,71.6872,128.8694,19.49,92,100,5.97,overcast clouds
330,Saldanha,ZA,-33.0117,17.9442,60.85,87,64,17.07,broken clouds
331,Barcelona,ES,41.3888,2.159,77.29,68,20,17.27,few clouds
332,Roosendaal,NL,51.5308,4.4653,57.0,90,100,3.44,overcast clouds
333,Harlingen,US,26.1906,-97.6961,91.36,69,0,9.22,clear sky
334,Lasa,IT,46.6166,10.7002,59.88,82,100,0.87,overcast clouds
335,Brufut,GM,13.3814,-16.7518,89.69,74,75,8.05,thunderstorm
336,Farafangana,MG,-22.8167,47.8333,71.29,77,3,9.95,clear sky
337,Sarlat-La-Caneda,FR,44.889,1.2166,58.77,95,100,2.35,overcast clouds
338,Roald,NO,62.5833,6.1333,53.76,66,75,5.75,broken clouds
339,Ginda,IN,30.6945,78.4932,52.52,81,0,6.29,clear sky
340,Laki,BG,41.85,24.8167,54.03,69,94,3.4,overcast clouds
341,Cap Malheureux,MU,-19.9842,57.6142,71.47,69,0,7.0,clear sky
342,Siderno,IT,38.2779,16.302,68.34,83,100,5.28,overcast clouds
343,Sept-Iles,CA,50.2001,-66.3821,55.92,78,75,12.66,broken clouds
344,Kaabong,UG,3.4836,34.1492,74.03,41,85,14.18,overcast clouds
345,Tura,IN,25.5198,90.2201,70.66,97,29,2.98,scattered clouds
346,Paita,PE,-5.0892,-81.1144,70.72,64,21,12.44,few clouds
347,Iskateley,RU,67.6803,53.1512,36.5,90,26,8.41,scattered clouds
348,Maragogi,BR,-9.0122,-35.2225,80.6,68,51,13.04,broken clouds
349,Aksha,RU,50.2814,113.2867,37.99,56,23,3.8,few clouds
350,Ferrol,ES,43.4832,-8.2369,68.72,88,79,7.14,broken clouds
351,Benghazi,LY,32.1167,20.0667,77.54,56,2,8.3,clear sky
352,Namibe,AO,-15.1961,12.1522,69.87,84,19,10.87,few clouds
353,Sola,VU,-13.8833,167.55,80.46,70,90,5.03,overcast clouds
354,Chelmek,PL,50.1016,19.248,55.45,66,45,4.56,scattered clouds
355,Port Moresby,PG,-9.4431,147.1797,76.42,94,40,3.44,scattered clouds
356,Sinnamary,GF,5.3833,-52.95,85.33,67,39,13.78,scattered clouds
357,Avera,US,33.194,-82.5271,76.51,68,99,11.43,overcast clouds
358,Sampit,ID,-2.5333,112.95,74.86,92,100,1.77,moderate rain
359,Airai,TL,-8.9266,125.4092,61.45,91,47,1.48,scattered clouds
360,High Rock,BS,26.6208,-78.2833,77.02,72,99,12.17,moderate rain
361,Allapalli,IN,19.4167,80.0667,74.46,95,100,2.66,overcast clouds
362,Ajaccio,FR,42.0,8.9167,62.65,68,20,2.3,few clouds
363,Ngaoundere,CM,7.3167,13.5833,67.46,90,72,3.71,light rain
364,Faya,SA,18.3851,42.4509,66.31,35,8,3.62,clear sky
365,Suntar,RU,62.1444,117.6319,31.21,93,99,6.04,overcast clouds
366,Kushiro,JP,42.975,144.3747,57.4,87,77,10.09,broken clouds
367,Ambositra,MG,-20.5167,47.25,52.93,95,2,4.47,clear sky
368,Armidale,AU,-30.5167,151.65,52.18,84,99,5.64,overcast clouds
369,Guarabira,BR,-6.8547,-35.49,88.05,46,45,16.24,scattered clouds
370,Manjacaze,MZ,-24.7117,33.8828,75.4,64,87,10.18,overcast clouds
371,Solnechnyy,RU,50.7214,136.6319,39.13,82,5,3.6,clear sky
372,Tarakan,ID,3.3,117.6333,82.24,77,100,8.08,overcast clouds
373,Ulaanbaatar,MN,47.9077,106.8832,30.33,59,40,2.24,scattered clouds
374,Amazar,RU,53.858,120.875,35.91,79,100,1.83,overcast clouds
375,Mantua,IT,45.1667,10.7833,67.24,75,89,3.09,overcast clouds
376,Fairbanks,US,64.8378,-147.7164,24.22,87,75,0.0,broken clouds
377,Seymchan,RU,62.8833,152.4333,11.05,96,100,1.05,overcast clouds
378,Maumere,ID,-8.6199,122.2111,79.2,79,58,6.62,broken clouds
379,Katsuura,JP,35.1333,140.3,66.74,93,100,20.49,light rain
380,Vila Franca Do Campo,PT,37.7167,-25.4333,72.01,66,3,5.88,clear sky
381,Port Blair,IN,11.6667,92.75,77.04,94,40,2.3,mist
382,Novoagansk,RU,61.9449,76.6625,35.29,90,17,6.71,few clouds
383,Yerofey Pavlovich,RU,53.9667,121.9667,32.67,84,100,1.57,overcast clouds
384,Darnah,LY,32.767,22.6367,72.5,73,1,10.74,clear sky
385,Conakry,GN,9.538,-13.6773,86.07,66,40,9.22,scattered clouds
386,Okhotsk,RU,59.3833,143.3,30.07,59,100,6.82,overcast clouds
387,Berdigestyakh,RU,62.0989,126.6992,29.73,98,100,3.53,overcast clouds
388,Bahia Blanca,AR,-38.7196,-62.2724,60.28,19,2,10.6,clear sky
389,Chengde,CN,40.9725,117.9361,54.68,51,100,1.45,light rain
390,Vao,NC,-22.6667,167.4833,70.34,69,58,16.91,broken clouds
391,Cedar City,US,37.6775,-113.0619,63.39,31,0,4.61,clear sky
392,Skjervoy,NO,70.0311,20.9714,41.0,78,100,20.76,light rain
393,San Cristobal,VE,7.7669,-72.225,80.78,47,97,3.44,overcast clouds
394,Belmonte,BR,-15.8631,-38.8828,80.8,60,14,8.95,few clouds
395,Dolinsk,RU,47.35,142.8,47.37,91,91,8.68,overcast clouds
396,Chernyshevskiy,RU,63.0128,112.4714,28.26,98,100,2.77,overcast clouds
397,Nabire,ID,-3.3667,135.4833,75.27,89,100,2.86,overcast clouds
398,Ancud,CL,-41.8697,-73.8203,45.82,66,98,10.0,overcast clouds
399,Henties Bay,NA,-22.116,14.2845,59.54,86,22,7.96,few clouds
400,Kalmunai,LK,7.4167,81.8167,78.85,83,98,4.59,overcast clouds
401,Esperance,AU,-33.8667,121.9,51.1,77,19,7.16,few clouds
402,Zaraza,VE,9.3503,-65.3245,86.05,64,100,4.27,overcast clouds
403,San Policarpo,PH,12.1791,125.5072,78.93,89,100,8.46,overcast clouds
404,Vilyuysk,RU,63.7553,121.6247,32.41,99,100,2.35,light snow
405,Yanji,CN,42.9075,129.5078,47.08,81,1,2.19,clear sky
406,Jieshi,CN,22.8134,115.8257,74.86,77,60,18.66,broken clouds
407,Waw,SS,7.7029,27.9953,80.33,69,72,3.89,broken clouds
408,Fortuna,US,40.5982,-124.1573,52.14,100,100,0.0,overcast clouds
409,Ozernovskiy,RU,51.5,156.5167,43.12,70,81,10.4,broken clouds
410,Benalla,AU,-36.55,145.9833,49.86,98,90,4.05,overcast clouds
411,Alyangula,AU,-13.8483,136.4192,80.55,76,91,5.93,overcast clouds
412,Matay,EG,28.419,30.7792,78.91,37,0,9.06,clear sky
413,Inhambane,MZ,-23.865,35.3833,76.98,69,20,4.61,few clouds
414,Bantry,IE,51.6833,-9.45,56.79,89,100,5.77,overcast clouds
415,Kaitangata,NZ,-46.2817,169.8464,40.21,91,34,4.29,scattered clouds
416,Matadi,CD,-5.8167,13.45,84.45,64,67,6.11,broken clouds
417,Alice Springs,AU,-23.7,133.8833,47.75,66,40,0.0,scattered clouds
418,Kingaroy,AU,-26.5333,151.8333,60.84,100,100,5.75,overcast clouds
419,Tezu,IN,27.9167,96.1667,73.04,92,71,2.73,broken clouds
420,Aklavik,CA,68.2191,-135.0107,24.8,80,100,9.22,overcast clouds
421,Freetown,SL,8.484,-13.2299,83.91,79,75,9.22,light rain
422,Pinega,RU,64.7001,43.3936,36.54,91,10,4.92,clear sky
423,Chalus,IR,36.655,51.4204,69.26,88,40,2.3,scattered clouds
424,Port Macquarie,AU,-31.4333,152.9167,57.88,86,99,15.39,overcast clouds
425,Rehoboth,NA,-23.3167,17.0833,81.73,18,72,12.44,broken clouds
426,Samastipur,IN,25.85,85.7833,79.86,70,86,6.4,overcast clouds
427,Umm Kaddadah,SD,13.6017,26.6876,92.12,14,10,13.85,clear sky
428,Machico,PT,32.7,-16.7667,74.71,72,40,16.11,scattered clouds
429,Bambous Virieux,MU,-20.3428,57.7575,71.85,73,75,12.66,light rain
430,Pakpattan,PK,30.341,73.3866,76.86,31,0,4.03,clear sky
431,Bukama,CD,-9.2,25.85,84.49,21,3,0.69,clear sky
432,Tame,CO,6.461,-71.73,84.29,64,100,7.83,overcast clouds
433,Shakiso,ET,5.75,38.9167,61.88,86,93,2.01,overcast clouds
434,Portland,US,45.5234,-122.6762,72.61,65,40,7.0,smoke
435,Beinamar,TD,8.6698,15.3813,76.62,82,74,3.89,broken clouds
436,Pangnirtung,CA,66.1451,-65.7125,21.2,58,20,3.44,few clouds
437,Tautira,PF,-17.7333,-149.15,76.51,80,12,7.47,few clouds
438,Nanortalik,GL,60.1432,-45.2371,33.4,54,5,10.67,clear sky
439,Norilsk,RU,69.3535,88.2027,27.43,95,100,5.32,overcast clouds
440,Guerrero Negro,MX,27.9769,-114.0611,72.25,73,76,13.35,broken clouds
441,Deputatskiy,RU,69.3,139.9,-4.59,96,61,5.37,broken clouds
442,Jackson,US,42.4165,-122.8345,72.39,45,0,0.0,clear sky
443,Haines Junction,CA,60.7522,-137.5108,28.35,80,100,8.05,overcast clouds
444,Lavassaare,EE,58.5114,24.3889,51.82,93,100,6.91,overcast clouds
445,Kahului,US,20.8947,-156.47,80.83,79,75,5.75,broken clouds
446,Tevaitoa,PF,-16.7833,-151.5,78.28,76,18,14.23,few clouds
447,Mehamn,NO,71.0357,27.8492,39.15,81,0,10.36,clear sky
448,Champerico,GT,14.3,-91.9167,90.14,79,100,5.64,overcast clouds
449,Goderich,CA,43.7501,-81.7165,54.91,71,99,14.97,overcast clouds
450,Escanaba,US,45.7453,-87.0646,47.95,85,100,9.22,overcast clouds
451,Isilkul,RU,54.9109,71.2728,47.93,63,100,14.32,overcast clouds
452,Hlohovec,SK,48.4317,17.8031,59.22,54,83,4.74,broken clouds
453,Svetlaya,RU,46.5389,138.3297,48.29,73,30,5.7,scattered clouds
454,Dingle,PH,10.9995,122.6711,75.96,89,100,3.18,overcast clouds
455,Lae,PG,-6.7221,146.9847,75.36,78,95,6.24,overcast clouds
456,Cumana,VE,10.4635,-64.1775,84.15,71,84,6.64,light rain
457,Calabozo,VE,8.9242,-67.4293,88.21,54,100,5.79,overcast clouds
458,Yacuiba,BO,-22.038,-63.6797,90.37,35,20,5.75,few clouds
459,Durania,CO,7.7131,-72.6576,79.72,56,100,3.71,overcast clouds
460,Shubarshi,KZ,48.5872,57.1869,50.32,66,79,7.94,broken clouds
461,Sire,NG,12.9299,5.2043,90.46,31,64,6.22,broken clouds
462,Tiznit,MA,29.5833,-9.5,75.88,37,0,5.99,clear sky
463,Bonavista,CA,48.6499,-53.1147,53.13,61,5,1.79,clear sky
464,Yumen,CN,40.2833,97.2,46.27,33,0,7.74,clear sky
465,Protivin,CZ,49.1995,14.2172,54.79,76,100,0.76,overcast clouds
466,Hirara,JP,24.8,125.2833,79.99,81,38,26.91,scattered clouds
467,Aksarka,RU,66.5606,67.7975,39.16,93,100,10.47,light rain
468,Sembe,CG,1.6481,14.5806,77.58,78,98,1.25,light rain
469,Presidencia Roque Saenz Pena,AR,-26.7852,-60.4388,88.92,19,47,6.76,scattered clouds
470,Raudeberg,NO,61.9875,5.1352,47.07,70,32,19.19,scattered clouds
471,Gombong,ID,-7.6072,109.5142,76.57,86,98,4.92,overcast clouds
472,Atbasar,KZ,51.8,68.3333,52.45,27,79,9.42,broken clouds
473,Marzuq,YE,14.4,46.4667,73.44,33,5,3.74,clear sky
474,Raga,SS,8.4596,25.678,79.61,70,97,1.72,overcast clouds
475,Paamiut,GL,61.994,-49.6678,29.79,47,7,9.04,clear sky
476,Starokostyantyniv,UA,49.7576,27.2034,46.92,68,19,6.08,few clouds
477,Troitskoye,RU,52.9821,84.6757,37.99,76,6,5.57,clear sky
478,Chichigalpa,NI,12.5776,-87.027,87.51,70,40,4.61,scattered clouds
479,Sao Felix Do Xingu,BR,-6.6447,-51.995,97.41,28,58,3.47,light rain
480,Egvekinot,RU,66.3167,-179.1667,11.71,71,37,4.72,scattered clouds
481,Ranot,TH,7.7777,100.3213,79.54,80,96,6.29,overcast clouds
482,Opuwo,NA,-18.0607,13.84,82.53,29,83,18.34,broken clouds
483,Sulangan,PH,11.1373,123.7228,83.62,76,100,11.01,overcast clouds
484,Aksarayskiy,RU,46.7924,48.0119,54.12,51,12,5.64,few clouds
485,Tucupita,VE,9.0622,-62.051,83.91,69,90,5.66,overcast clouds
486,Dunedin,NZ,-45.8742,170.5036,45.81,87,52,5.93,broken clouds
487,Hami,CN,42.8,93.45,52.18,40,1,3.18,clear sky
488,Ayr,GB,55.4627,-4.6339,53.58,82,40,14.97,scattered clouds
489,Moron,AR,-34.6534,-58.6198,67.01,23,3,11.12,clear sky
490,Eenhana,NA,-17.4667,16.3333,88.88,14,99,3.78,overcast clouds
491,Kismayo,SO,-0.3582,42.5454,77.38,80,86,17.05,overcast clouds
492,Saint-Georges,GD,12.0564,-61.7485,87.48,70,20,19.57,few clouds
493,Roanoke Rapids,US,36.4615,-77.6542,71.29,100,100,8.05,overcast clouds
494,Tigre,AR,-34.426,-58.5796,67.26,22,0,12.66,clear sky
495,Koslan,RU,63.4564,48.8989,40.89,91,100,4.18,overcast clouds
496,Warora,IN,20.2333,79.0,75.27,91,96,6.29,overcast clouds
497,Oktyabrskoye,RU,43.0645,44.7417,48.34,76,75,6.71,broken clouds
498,Kuusamo,FI,65.9667,29.1833,41.04,93,100,10.36,light intensity drizzle
499,Key West,US,24.5557,-81.7826,91.4,79,40,13.8,scattered clouds
500,Bassar,TG,9.25,0.7833,77.23,76,98,2.66,overcast clouds
501,Taltal,CL,-25.4,-70.4833,63.03,65,13,4.81,few clouds
502,Bambanglipuro,ID,-7.95,110.2833,76.8,84,91,6.35,overcast clouds
503,Nago,JP,26.5881,127.9761,82.45,82,44,17.25,scattered clouds
504,Brainerd,US,46.358,-94.2008,39.49,60,100,12.66,overcast clouds
505,Helong,CN,42.5397,128.9972,45.48,72,0,4.09,clear sky
506,Fairlie,GB,55.756,-4.8556,53.51,89,92,10.0,light rain
507,Mayo,US,38.8876,-76.5119,69.98,94,100,10.36,overcast clouds
508,Carberry,CA,49.8689,-99.3602,35.83,36,62,21.74,broken clouds
509,Oriximina,BR,-1.7656,-55.8661,91.87,46,39,4.83,scattered clouds
510,Feijo,BR,-8.1642,-70.3536,95.5,39,63,3.56,broken clouds
511,Kamenka,RU,51.3223,42.7678,45.84,79,39,6.33,scattered clouds
512,Morehead,US,37.2711,-87.1764,65.95,30,0,5.75,clear sky
513,Talcahuano,CL,-36.7167,-73.1167,56.88,44,0,18.41,clear sky
514,Grajewo,PL,53.6473,22.4554,47.62,71,12,7.43,few clouds
515,Chubbuck,US,42.9208,-112.4661,65.64,40,0,1.01,clear sky
516,Sokoni,TZ,-6.4333,39.55,76.19,76,6,16.64,clear sky
517,Guapiles,CR,10.2159,-83.7866,87.28,61,94,4.21,overcast clouds
518,Guayaquil,EC,-2.1667,-79.9,82.36,57,20,8.05,few clouds
519,Ode,NG,7.7899,5.7117,72.03,94,100,0.72,light rain
520,Tigzirt,DZ,36.8886,4.1198,71.46,76,10,6.08,clear sky
521,Chalon-Sur-Saone,FR,46.7833,4.85,61.21,91,100,5.44,overcast clouds
522,Porohy,UA,48.6876,24.2632,45.64,95,65,2.75,broken clouds
523,Sioux Lookout,CA,50.1001,-91.917,37.47,81,100,11.5,overcast clouds
524,Kezmarok,SK,49.1357,20.4335,53.26,93,40,2.3,scattered clouds
525,Nanzhou,CN,29.3596,112.4024,59.23,50,0,7.49,clear sky
526,Silva Jardim,BR,-22.6508,-42.3917,82.29,41,72,5.77,broken clouds
527,Jumla,NP,29.2747,82.1838,47.71,87,2,4.29,clear sky
528,Karasburg,NA,-28.0167,18.75,79.54,23,63,21.7,broken clouds
529,Comodoro Rivadavia,AR,-45.8667,-67.5,55.26,19,0,9.22,clear sky
530,Awjilah,LY,29.1081,21.2869,84.4,25,12,8.05,few clouds
531,Galle,LK,6.0367,80.217,77.68,86,99,9.93,moderate rain
532,Coahuayana,MX,18.7333,-103.6833,88.18,66,47,3.15,scattered clouds
533,Koungou,YT,-12.7336,45.2042,74.91,73,0,1.14,clear sky
534,Balkanabat,TM,39.5108,54.3671,71.58,29,98,8.88,overcast clouds
535,Clyde River,CA,70.4692,-68.5914,28.63,59,75,10.36,broken clouds
536,Fayaoue,NC,-20.65,166.5333,73.56,68,2,20.0,clear sky
537,Hambantota,LK,6.1241,81.1185,78.51,84,98,16.22,overcast clouds
538,Lorengau,PG,-2.0226,147.2712,79.14,72,45,1.23,scattered clouds
539,Gat,IL,31.61,34.7642,74.08,100,6,6.55,clear sky
540,Wakkanai,JP,45.4094,141.6739,58.48,68,83,19.37,broken clouds
541,Puerto Carreno,CO,6.189,-67.4859,89.58,58,20,6.91,few clouds
542,Dogondoutchi,NE,13.6393,4.0287,97.9,18,48,11.1,scattered clouds
543,Dongsheng,CN,39.8161,109.9776,47.86,69,95,4.81,overcast clouds
544,Fukue,JP,32.6881,128.8419,71.22,75,0,15.7,clear sky
545,Vallenar,CL,-28.5708,-70.7581,78.46,28,0,7.61,clear sky
546,Rovinj,HR,45.08,13.64,62.29,69,43,2.57,scattered clouds
547,Burnie,AU,-41.0667,145.9167,47.95,96,94,9.48,overcast clouds
548,Miri,MY,4.4148,114.0089,75.34,94,40,8.05,scattered clouds
549,Yabelo,ET,4.8833,38.0833,67.96,49,94,8.75,overcast clouds
550,Fairmont,US,39.4851,-80.1426,60.39,77,95,1.01,overcast clouds
551,Danielskuil,ZA,-28.1887,23.5395,75.34,19,95,8.5,overcast clouds
552,Sorland,NO,67.667,12.6934,46.26,60,83,17.78,broken clouds
553,Santiago Del Estero,AR,-27.7951,-64.2615,83.93,17,0,20.58,clear sky
554,Soyo,AO,-6.1349,12.3689,77.47,85,90,11.32,overcast clouds
555,Omsukchan,RU,62.5333,155.8,10.22,96,99,2.13,overcast clouds
556,Mizdah,LY,31.4451,12.9801,81.09,20,41,7.81,scattered clouds
557,Tocopilla,CL,-22.092,-70.1979,65.21,64,13,7.81,few clouds
558,Paracuru,BR,-3.41,-39.0306,82.11,63,56,17.58,broken clouds
559,Gushikawa,JP,26.3544,127.8686,81.63,74,56,18.43,broken clouds
560,Mattru,SL,7.6244,-11.8332,78.58,85,96,5.66,overcast clouds
561,Lipno,PL,52.8444,19.1785,48.22,81,2,7.58,clear sky
562,Meulaboh,ID,4.1363,96.1285,76.35,86,69,3.58,broken clouds
563,Fort Nelson,CA,58.8053,-122.7002,40.59,75,75,6.91,broken clouds
564,Camacha,PT,33.0833,-16.3333,69.22,68,40,12.66,scattered clouds
565,Karratha,AU,-20.7377,116.8463,70.14,43,74,9.57,broken clouds
566,Hailey,US,43.5196,-114.3153,60.89,30,0,5.75,clear sky
567,Almaznyy,RU,48.0448,40.045,50.83,56,81,9.53,broken clouds
568,Fuerte Olimpo,PY,-21.0415,-57.8738,82.8,60,99,6.71,light rain
569,Santa Cruz,BO,-17.8,-63.1667,81.86,65,75,12.66,broken clouds
570,Krasnogorsk,RU,55.8225,37.3181,43.18,87,0,4.47,clear sky
571,Petauke,ZM,-14.2426,31.3253,76.06,19,1,6.98,clear sky
572,Banda Aceh,ID,5.5577,95.3222,78.98,80,54,13.69,broken clouds
573,Bayburt,TR,40.2589,40.2278,50.14,67,58,3.56,broken clouds
574,Tahe,CN,52.3333,124.7333,37.22,72,80,3.24,broken clouds
575,Robertsport,LR,6.7533,-11.3686,79.84,80,83,9.26,broken clouds
576,Skibbereen,IE,51.55,-9.2667,57.11,91,100,8.9,overcast clouds
577,Broome,US,42.2506,-75.833,62.69,89,100,12.66,overcast clouds
578,Cabedelo,BR,-6.9811,-34.8339,86.67,67,18,16.46,few clouds
579,Rockport,US,28.0206,-97.0544,92.07,75,0,6.91,clear sky
580,Palora,EC,-1.7,-77.9333,78.91,56,82,4.05,light rain
581,Grindavik,IS,63.8424,-22.4338,43.27,75,75,17.27,broken clouds
582,Jagatsinghapur,IN,20.2667,86.1667,80.96,85,10,3.38,clear sky
583,Ibra,OM,22.6906,58.5334,75.45,38,2,1.39,clear sky
584,Dandong,CN,40.1292,124.3947,49.46,84,91,3.22,overcast clouds
585,Verkhneuralsk,RU,53.8769,59.2106,46.89,83,93,5.66,overcast clouds
586,Tabou,CI,4.423,-7.3528,78.4,80,71,6.26,broken clouds
587,Brae,GB,60.3964,-1.353,50.63,86,100,21.63,light rain
588,Marienburg,PL,54.0359,19.0266,53.58,61,20,8.12,few clouds
589,Aras,ES,42.5617,-2.356,70.21,53,0,4.61,clear sky
590,Temir,KZ,49.1414,57.13,49.73,67,76,9.15,broken clouds
591,Bauchi,NG,10.5,10.0,77.77,66,99,3.31,overcast clouds
592,Mingguang,CN,32.7802,117.9638,56.57,88,2,5.66,clear sky
593,Columbus,US,39.9612,-82.9988,60.58,46,20,16.11,few clouds
594,Yar-Sale,RU,66.8333,70.8333,39.61,91,100,13.82,overcast clouds
595,Gold Coast,AU,-28.0,153.4333,66.18,96,75,3.44,light rain
596,Caravelas,BR,-17.7125,-39.2481,81.95,52,61,9.4,broken clouds
597,Batie,BF,9.8833,-2.9167,83.34,56,98,3.87,overcast clouds
598,Moengo,SR,5.6167,-54.4,76.42,94,97,4.81,overcast clouds
599,Baba Ana,RO,44.9667,26.45,60.82,69,89,10.69,overcast clouds
600,Eyl,SO,7.9803,49.8164,78.82,80,48,16.87,scattered clouds
601,Gornopravdinsk,RU,60.05,69.9,39.81,81,79,7.02,broken clouds
602,Buta,CD,2.7858,24.73,77.86,66,99,3.02,overcast clouds
603,Tigil,RU,57.8,158.6667,33.28,98,100,7.27,light snow
604,Turayf,SA,31.6725,38.6637,73.65,46,0,11.5,clear sky
605,Lourdes,FR,43.1,-0.05,65.68,68,100,6.91,overcast clouds
606,San Lorenzo,PY,-25.3333,-57.5333,77.94,57,75,5.01,broken clouds
607,Banjar,ID,-8.19,114.9675,75.74,90,67,5.44,broken clouds
608,Waitati,NZ,-45.75,170.5667,45.81,88,47,5.59,scattered clouds
609,Aitape,PG,-3.1374,142.3475,76.37,89,100,3.98,overcast clouds
610,Vardo,NO,70.3705,31.1107,35.58,93,75,9.22,broken clouds
611,Saint-Pierre,RE,-21.3393,55.4781,71.28,64,0,12.66,clear sky
612,Sao Filipe,CV,14.8961,-24.4956,80.2,76,58,6.71,broken clouds
613,Cardston,CA,49.2,-113.3019,62.89,51,6,2.3,clear sky
614,Margate,GB,51.3813,1.3862,56.1,86,22,1.01,few clouds
615,Doha,QA,25.2867,51.5333,86.31,74,0,4.61,clear sky
616,Parry Sound,CA,45.3501,-80.033,53.65,82,83,7.2,moderate rain
617,Rantepao,ID,-2.9701,119.8978,67.59,97,100,1.41,light rain
618,Tanete,ID,-3.9443,119.7848,75.63,93,100,0.25,overcast clouds
619,Kungurtug,RU,50.5994,97.5228,25.3,68,6,0.38,clear sky
620,Manoharpur,IN,27.3,75.95,73.58,46,0,3.67,clear sky
621,Gao,ML,16.6362,1.637,95.34,12,11,9.69,few clouds
622,Mikhaylovka,RU,50.06,43.2379,47.79,80,39,5.66,scattered clouds
623,Gandara,PH,12.013,124.8118,77.63,93,100,4.54,overcast clouds
624,Kumluca,TR,36.3703,30.2869,73.6,62,7,2.48,clear sky
625,Lukoyanov,RU,55.0277,44.4786,43.75,73,95,9.69,overcast clouds
626,Starodubskoye,RU,44.5631,44.0153,58.87,49,100,5.46,overcast clouds
627,Ananas,HT,19.2466,-71.9557,88.56,46,98,2.19,light rain
628,Ust-Ordynskiy,RU,52.805,104.7508,33.22,81,96,9.93,overcast clouds
629,Mago,RU,53.2514,140.1822,36.54,88,66,2.73,broken clouds
630,Georgiyevka,KZ,43.0369,74.7114,50.04,37,10,6.71,smoke
631,Lufilufi,WS,-13.8745,-171.5986,74.98,80,38,14.45,light rain
632,Nantucket,US,41.2835,-70.0995,69.91,79,0,17.27,clear sky
633,Mutare,ZW,-18.9707,32.6709,70.36,28,38,4.41,scattered clouds
634,Ifakara,TZ,-8.1333,36.6833,77.92,33,4,5.84,clear sky
635,Hindupur,IN,13.8289,77.4933,73.02,85,58,4.36,broken clouds
636,Damulog,PH,7.4836,124.9431,72.5,91,99,0.74,overcast clouds
637,Dhangadhi,NP,28.7079,80.5961,70.05,86,0,3.53,clear sky
638,Teguise,ES,29.0605,-13.564,75.42,65,40,26.46,scattered clouds
639,Antofagasta,CL,-23.65,-70.4,61.88,65,5,8.59,clear sky
640,Natal,BR,-5.795,-35.2094,86.65,54,20,20.71,few clouds
641,Rorvik,NO,64.8621,11.2373,44.71,87,75,0.0,broken clouds
642,Sehwan,PK,26.4279,67.863,82.89,18,0,3.62,clear sky
643,Hermiston,US,45.8404,-119.2895,68.7,58,0,0.0,clear sky
644,Tiarei,PF,-17.5333,-149.3333,78.82,80,11,8.48,few clouds
645,Havre-Saint-Pierre,CA,50.2334,-63.5986,55.76,71,75,13.8,broken clouds
646,Bilma,NE,18.6853,12.9164,89.11,12,2,6.91,clear sky
647,Bilibino,RU,68.0546,166.4372,2.16,88,100,2.51,overcast clouds
648,Gimli,CA,50.6336,-96.9907,35.62,87,100,12.66,light rain
649,Huarmey,PE,-10.0681,-78.1522,66.81,72,41,10.4,scattered clouds
650,Sarakhs,IR,36.5449,61.1577,68.14,30,0,0.0,clear sky
651,Bendigo,AU,-36.7667,144.2833,49.86,78,95,5.99,overcast clouds
652,Rio Gallegos,AR,-51.6226,-69.2181,50.05,37,75,19.57,broken clouds
653,Cayenne,GF,4.9333,-52.3333,87.84,66,75,8.05,broken clouds
654,Bereda,ES,43.2686,-7.5406,68.41,90,97,2.66,overcast clouds
655,Vikhorevka,RU,56.1201,101.1636,33.39,90,99,5.5,overcast clouds
656,Cangzhou,CN,38.3167,116.8667,59.95,55,100,4.74,light rain
657,Ternate,ID,0.8,127.4,81.46,80,99,4.99,overcast clouds
658,Tyumentsevo,RU,53.3224,81.498,38.01,71,7,7.49,clear sky
659,Beruwala,LK,6.4788,79.9828,76.33,91,100,7.87,overcast clouds
660,Cananeia,BR,-25.0147,-47.9267,73.72,81,100,7.05,overcast clouds
661,Jaguaruna,BR,-28.615,-49.0256,71.44,81,90,9.22,moderate rain
662,Chara,RU,56.9064,118.2631,30.06,74,89,3.27,overcast clouds
663,Santa Rosa,PH,14.3122,121.1114,83.08,87,100,3.27,overcast clouds
664,Rajauri,IN,33.3833,74.3,62.96,58,8,5.66,clear sky
665,Bethanien,NA,-26.502,17.1583,80.71,16,39,15.99,scattered clouds
666,Azuqueca De Henares,ES,40.5669,-3.2599,77.18,43,0,3.44,clear sky
667,Merauke,ID,-8.4667,140.3333,77.56,88,99,10.29,overcast clouds
668,Luanda,AO,-8.8368,13.2343,76.46,81,15,12.06,few clouds
669,Ankara,TR,39.9199,32.8543,61.21,50,61,7.0,broken clouds
670,Izumo,JP,35.3667,132.7667,55.35,90,1,6.22,clear sky
671,Rio Grande,BR,-32.035,-52.0986,82.51,56,0,10.47,clear sky
672,Eirunepe,BR,-6.6603,-69.8736,95.13,39,79,3.58,broken clouds
673,Jining,CN,35.405,116.5814,58.51,56,98,5.41,overcast clouds
674,Lerwick,GB,60.1545,-1.1494,51.8,85,96,23.6,light rain
675,Xining,CN,36.6167,101.7667,40.62,64,90,2.15,overcast clouds
676,Alexandria,EG,31.2156,29.9553,75.16,57,40,14.97,scattered clouds
677,Puerto Leguizamo,CO,-0.1934,-74.7819,95.61,37,53,4.36,broken clouds
678,Zapolyarnyy,RU,69.4154,30.8136,38.48,93,100,14.25,overcast clouds
679,Churapcha,RU,62.0025,132.4325,24.13,97,99,3.65,light snow
680,Cotonou,BJ,6.3654,2.4183,80.58,83,40,8.05,scattered clouds
681,Pitkyaranta,RU,61.5734,31.4792,45.5,84,100,12.5,overcast clouds
682,Fosses,FR,49.0981,2.5096,58.21,96,75,10.36,broken clouds
683,Ilek,RU,51.5271,53.3831,47.82,91,36,9.73,scattered clouds
684,Eureka,US,40.8021,-124.1637,52.41,71,61,5.91,broken clouds
685,Beibei,CN,29.8256,106.4339,67.37,79,100,1.97,overcast clouds
686,Ponta Delgada,PT,37.7333,-25.6667,72.32,68,20,9.22,few clouds
687,Holme,DK,56.1138,10.1725,53.17,92,98,8.01,overcast clouds
688,Zhangjiakou,CN,40.81,114.8794,55.24,33,100,2.68,overcast clouds
689,Kimberley,ZA,-28.7323,24.7623,76.69,20,0,5.75,clear sky
690,Coracao De Maria,BR,-12.2333,-38.75,78.6,66,85,12.03,overcast clouds
691,Odweyne,SO,9.4092,45.064,78.58,41,69,7.09,broken clouds
692,Vostok,RU,46.4856,135.8833,43.81,89,90,4.12,overcast clouds
693,Silopi,TR,37.2497,42.4694,72.77,26,93,1.77,overcast clouds
694,Ahuimanu,US,21.4447,-157.8378,77.61,94,20,3.44,few clouds
695,Cockburn Town,TC,21.4612,-71.1419,85.96,66,40,17.27,scattered clouds
696,San Diego De La Union,MX,21.4667,-100.8667,72.79,36,27,11.41,scattered clouds
697,San Carlos De Bariloche,AR,-41.1456,-71.3082,49.24,21,20,18.41,light rain
698,Berlin,DE,52.5244,13.4105,59.18,81,20,5.01,few clouds
699,Odda,NO,60.0691,6.5457,49.77,88,81,1.23,broken clouds
700,Dukat,RU,62.55,155.55,9.0,95,99,1.9,overcast clouds
701,Tual,ID,-5.6667,132.75,83.08,77,71,10.71,broken clouds
702,Miraflores,MX,19.2167,-98.8083,74.97,37,90,5.73,overcast clouds
703,Ninghai,CN,29.2892,121.4247,61.43,91,46,5.14,scattered clouds
704,Moose Factory,CA,51.2585,-80.6094,46.4,81,100,4.61,overcast clouds
705,Abha,SA,18.2164,42.5053,66.02,52,0,4.61,clear sky
706,Okha,RU,53.5739,142.9478,40.66,87,75,10.25,broken clouds
707,Hervey Bay,AU,-25.2986,152.8535,63.01,90,30,11.01,scattered clouds
708,Nemuro,JP,43.3236,145.575,57.52,73,98,15.79,overcast clouds
709,Terra Santa,BR,-2.1042,-56.4869,90.55,49,47,7.11,scattered clouds
710,Manokwari,ID,-0.8667,134.0833,79.83,77,99,5.57,overcast clouds
711,Teahupoo,PF,-17.8333,-149.2667,73.36,81,15,8.88,few clouds
712,Jalu,LY,29.0331,21.5482,82.11,27,9,7.38,clear sky
713,Gogrial,SS,8.5332,28.1004,81.52,64,55,3.33,broken clouds
714,Kuala Pilah,MY,2.7389,102.2487,74.05,92,71,3.38,light rain
715,De Aar,ZA,-30.6497,24.0123,81.14,19,86,15.23,overcast clouds
